{
"type": "FeatureCollection",
"name": "photos",
"crs": { "type": "name", "properties": { "name": "urn:ogc:def:crs:OGC:1.3:CRS84" } },
"features": [
{ "type": "Feature", "id": 1, "properties": { "direction": 195, "title": "Bowling Green in the days of old 'Steamship Row'.  From an upper window at Morris Street. 1899", "orientation": 15, "thumbs": "img/thumbs/img_1_thumb.jpg", "full": "img/full/img_1.jpg" }, "geometry": { "type": "Point", "coordinates": [ -74.01339, 40.70605 ] } },
{ "type": "Feature", "id": 2, "properties": { "direction": 244, "title": "Stevens House, S.W. cor. B. and Morris Street. Once the site of the dwelling of Domine Megapolensis. 1905", "orientation": 64, "thumbs": "img/thumbs/img_2_thumb.jpg", "full": "img/full/img_2.jpg" }, "geometry": { "type": "Point", "coordinates": [ -74.01295, 40.70598 ] } },
{ "type": "Feature", "id": 3, "properties": { "direction": 118, "title": "No. 48.  The humble 4 story brownstone, which has no doubt passed from being the home of wealth to the boarding house and so on down to the saloon.", "orientation": 298, "thumbs": "img/thumbs/img_3_thumb.jpg", "full": "img/full/img_3.jpg" }, "geometry": { "type": "Point", "coordinates": [ -74.01303, 40.70641 ] } },
{ "type": "Feature", "id": 4, "properties": { "direction": 19, "title": "Trinity and the new Trinity Building", "orientation": 199, "thumbs": "img/thumbs/img_4_thumb.jpg", "full": "img/full/img_4.jpg" }, "geometry": { "type": "Point", "coordinates": [ -74.0122, 40.70705 ] } },
{ "type": "Feature", "id": 5, "properties": { "direction": 274, "title": "Monument to the Heroes of the Civil War.  Said to have been erected by the Trinity Corporation in order to prevent the City from putting Pine Street through the Church-yard, west from Broadway", "orientation": 94, "thumbs": "img/thumbs/img_5_thumb.jpg", "full": "img/full/img_5.jpg" }, "geometry": { "type": "Point", "coordinates": [ -74.01111, 40.70837 ] } },
{ "type": "Feature", "id": 6, "properties": { "direction": 62, "title": "S.E. cor. of John Street. The ‘dead line’ below which no known crook is allowed to roam unmolested", "orientation": 242, "thumbs": "img/thumbs/img_6_thumb.jpg", "full": "img/full/img_6.jpg" }, "geometry": { "type": "Point", "coordinates": [ -74.00995, 40.71002 ] } },
{ "type": "Feature", "id": 7, "properties": { "direction": 195, "title": "The west cross-walk at Fulton Street", "orientation": 15, "thumbs": "img/thumbs/img_7_thumb.jpg", "full": "img/full/img_7.jpg" }, "geometry": { "type": "Point", "coordinates": [ -74.00898, 40.71122 ] } },
{ "type": "Feature", "id": 8, "properties": { "direction": 146, "title": "The last state of the Herald Building. S.E. cor. Ann Street", "orientation": 326, "thumbs": "img/thumbs/img_8_thumb.jpg", "full": "img/full/img_8.jpg" }, "geometry": { "type": "Point", "coordinates": [ -74.00881, 40.71154 ] } },
{ "type": "Feature", "id": 9, "properties": { "direction": 265, "title": "St Paul’s from Park Row", "orientation": 85, "thumbs": "img/thumbs/img_9_thumb.jpg", "full": "img/full/img_9.jpg" }, "geometry": { "type": "Point", "coordinates": [ -74.00812, 40.71135 ] } },
{ "type": "Feature", "id": 10, "properties": { "direction": 278, "title": "Untitled [Washington Elm]", "orientation": 98, "thumbs": "img/thumbs/img_10_thumb.jpg", "full": "img/full/img_10.jpg" }, "geometry": { "type": "Point", "coordinates": [ -74.00863, 40.71142 ] } },
{ "type": "Feature", "id": 11, "properties": { "direction": 19, "title": "Astor House from Ann Street. 1899", "orientation": 199, "thumbs": "img/thumbs/img_11_thumb.jpg", "full": "img/full/img_11.jpg" }, "geometry": { "type": "Point", "coordinates": [ -74.00889, 40.71097 ] } },
{ "type": "Feature", "id": 12, "properties": { "direction": 114, "title": "Holding down a franchise. In ’06 Barclay St. was repaved and the tracks disapeared [sic]", "orientation": 294, "thumbs": "img/thumbs/img_12_thumb.jpg", "full": "img/full/img_12.jpg" }, "geometry": { "type": "Point", "coordinates": [ -74.00865, 40.71216 ] } },
{ "type": "Feature", "id": 13, "properties": { "direction": 90, "title": "The City Hall a hard fact; B. & Park Pl. N.W. cor.", "orientation": 270, "thumbs": "img/thumbs/img_13_thumb.jpg", "full": "img/full/img_13.jpg" }, "geometry": { "type": "Point", "coordinates": [ -74.0081, 40.71257 ] } },
{ "type": "Feature", "id": 14, "properties": { "direction": 270, "title": "B. & Park Pl. N.W. cor.", "orientation": 90, "thumbs": "img/thumbs/img_14_thumb.jpg", "full": "img/full/img_14.jpg" }, "geometry": { "type": "Point", "coordinates": [ -74.00745, 40.71259 ] } },
{ "type": "Feature", "id": 15, "properties": { "direction": 142, "title": "City Hall Park from Warren Street", "orientation": 322, "thumbs": "img/thumbs/img_15_thumb.jpg", "full": "img/full/img_15.jpg" }, "geometry": { "type": "Point", "coordinates": [ -74.00713, 40.7139 ] } },
{ "type": "Feature", "id": 16, "properties": { "direction": 51, "title": "The old A. T. Stewart wholesale house – Chambers Street, N.E.", "orientation": 231, "thumbs": "img/thumbs/img_16_thumb.jpg", "full": "img/full/img_16.jpg" }, "geometry": { "type": "Point", "coordinates": [ -74.00726, 40.71323 ] } },
{ "type": "Feature", "id": 17, "properties": { "direction": 240, "title": "473 B.", "orientation": 60, "thumbs": "img/thumbs/img_17_thumb.jpg", "full": "img/full/img_17.jpg" }, "geometry": { "type": "Point", "coordinates": [ -73.99989, 40.72143 ] } },
{ "type": "Feature", "id": 18, "properties": { "direction": 135, "title": "Metropolitan Hotel and Niblo’s Garden", "orientation": 315, "thumbs": "img/thumbs/img_18_thumb.jpg", "full": "img/full/img_18.jpg" }, "geometry": { "type": "Point", "coordinates": [ -73.99746, 40.72494 ] } },
{ "type": "Feature", "id": 19, "properties": { "direction": 245, "title": "681 Broadway cor.", "orientation": 65, "thumbs": "img/thumbs/img_19_thumb.jpg", "full": "img/full/img_19.jpg" }, "geometry": { "type": "Point", "coordinates": [ -73.9945, 40.72791 ] } },
{ "type": "Feature", "id": 20, "properties": { "direction": 45, "title": "Grace Church", "orientation": 225, "thumbs": "img/thumbs/img_20_thumb.jpg", "full": "img/full/img_20.jpg" }, "geometry": { "type": "Point", "coordinates": [ -73.99194, 40.73126 ] } },
{ "type": "Feature", "id": 21, "properties": { "direction": 105, "title": "The famous Fleischmann’s Vienna Bakery.  One of the results of the Centennial Exhibition of 1876.  It is here that the ‘bread line’ is formed every midnight by those needing a bite of bread and a cup of coffee.", "orientation": 285, "thumbs": "img/thumbs/img_21_thumb.jpg", "full": "img/full/img_21.jpg" }, "geometry": { "type": "Point", "coordinates": [ -73.99244, 40.73204 ] } },
{ "type": "Feature", "id": 22, "properties": { "direction": 205, "title": "S. from 11th Street. First on right is St. Denis Hotel. On left the old A. T. Stewart uptown store, now Wanamaker’s, beyond which is the new Wanamaker building", "orientation": 25, "thumbs": "img/thumbs/img_22_thumb.jpg", "full": "img/full/img_22.jpg" }, "geometry": { "type": "Point", "coordinates": [ -73.991, 40.73292 ] } },
{ "type": "Feature", "id": 23, "properties": { "direction": 150, "title": "Washing up for Sunday [southeast corner of Union Square]", "orientation": 330, "thumbs": "img/thumbs/img_23_thumb.jpg", "full": "img/full/img_23.jpg" }, "geometry": { "type": "Point", "coordinates": [ -73.98964, 40.73462 ] } },
{ "type": "Feature", "id": 24, "properties": { "direction": 177, "title": "A corner of the Tiffany building and across to the lights of 14th Street", "orientation": 357, "thumbs": "img/thumbs/img_24_thumb.jpg", "full": "img/full/img_24.jpg" }, "geometry": { "type": "Point", "coordinates": [ -73.99133, 40.73615 ] } },
{ "type": "Feature", "id": 25, "properties": { "direction": 225, "title": "The early camera catches the book-worm in Union Sqr.", "orientation": 45, "thumbs": "img/thumbs/img_25_thumb.jpg", "full": "img/full/img_25.jpg" }, "geometry": { "type": "Point", "coordinates": [ -73.9905, 40.73545 ] } },
{ "type": "Feature", "id": 26, "properties": { "direction": 75, "title": "Femmes du pave [21st Street]", "orientation": 255, "thumbs": "img/thumbs/img_26_thumb.jpg", "full": "img/full/img_26.jpg" }, "geometry": { "type": "Point", "coordinates": [ -73.99001, 40.73973 ] } },
{ "type": "Feature", "id": 27, "properties": { "direction": 117, "title": "Madison sqr. 1906.", "orientation": 297, "thumbs": "img/thumbs/img_27_thumb.jpg", "full": "img/full/img_27.jpg" }, "geometry": { "type": "Point", "coordinates": [ -73.9896, 40.74207 ] } },
{ "type": "Feature", "id": 28, "properties": { "direction": 42, "title": "Broadway and Fifth Avenue.  Washington Inauguration Centennial. 1889.", "orientation": 222, "thumbs": "img/thumbs/img_28_thumb.jpg", "full": "img/full/img_28.jpg" }, "geometry": { "type": "Point", "coordinates": [ -73.98961, 40.7414 ] } },
{ "type": "Feature", "id": 29, "properties": { "direction": 305, "title": "Untitled [florist]", "orientation": 125, "thumbs": "img/thumbs/img_29_thumb.jpg", "full": "img/full/img_29.jpg" }, "geometry": { "type": "Point", "coordinates": [ -73.98922, 40.74435 ] } },
{ "type": "Feature", "id": 30, "properties": { "direction": 330, "title": "Fruit shop at 1179 Broadway", "orientation": 150, "thumbs": "img/thumbs/img_30_thumb.jpg", "full": "img/full/img_30.jpg" }, "geometry": { "type": "Point", "coordinates": [ -73.98865, 40.74491 ] } },
{ "type": "Feature", "id": 31, "properties": { "direction": 167, "title": "Untitled [Joe Weber’s Bazar]", "orientation": 347, "thumbs": "img/thumbs/img_31_thumb.jpg", "full": "img/full/img_31.jpg" }, "geometry": { "type": "Point", "coordinates": [ -73.98855, 40.74623 ] } },
{ "type": "Feature", "id": 32, "properties": { "direction": 215, "title": "Untitled [Weber’s and Daly’s theaters]", "orientation": 35, "thumbs": "img/thumbs/img_32_thumb.jpg", "full": "img/full/img_32.jpg" }, "geometry": { "type": "Point", "coordinates": [ -73.9883, 40.74683 ] } },
{ "type": "Feature", "id": 33, "properties": { "direction": 181, "title": "Down Broadway from 30th Street", "orientation": 1, "thumbs": "img/thumbs/img_33_thumb.jpg", "full": "img/full/img_33.jpg" }, "geometry": { "type": "Point", "coordinates": [ -73.98863, 40.74698 ] } },
{ "type": "Feature", "id": 34, "properties": { "direction": 266, "title": "A frosty water-wagon", "orientation": 86, "thumbs": "img/thumbs/img_34_thumb.jpg", "full": "img/full/img_34.jpg" }, "geometry": { "type": "Point", "coordinates": [ -73.98832, 40.74714 ] } },
{ "type": "Feature", "id": 35, "properties": { "direction": 12, "title": "Untitled [Herald Square, looking north]", "orientation": 192, "thumbs": "img/thumbs/img_35_thumb.jpg", "full": "img/full/img_35.jpg" }, "geometry": { "type": "Point", "coordinates": [ -73.98824, 40.74913 ] } },
{ "type": "Feature", "id": 36, "properties": { "direction": 172, "title": "Untitled [Broadway Tabernacle and corner of Herald Building]", "orientation": 352, "thumbs": "img/thumbs/img_36_thumb.jpg", "full": "img/full/img_36.jpg" }, "geometry": { "type": "Point", "coordinates": [ -73.98797, 40.7513 ] } },
{ "type": "Feature", "id": 37, "properties": { "direction": 82, "title": "Untitled [Herald Square Theatre]", "orientation": 262, "thumbs": "img/thumbs/img_37_thumb.jpg", "full": "img/full/img_37.jpg" }, "geometry": { "type": "Point", "coordinates": [ -73.98875, 40.75077 ] } },
{ "type": "Feature", "id": 38, "properties": { "direction": 170, "title": "S. from 40th Street, e. side [Empire Theatre]", "orientation": 350, "thumbs": "img/thumbs/img_38_thumb.jpg", "full": "img/full/img_38.jpg" }, "geometry": { "type": "Point", "coordinates": [ -73.9871, 40.75454 ] } },
{ "type": "Feature", "id": 39, "properties": { "direction": 22, "title": "N. from 41st Street [Time for a High Ball]", "orientation": 202, "thumbs": "img/thumbs/img_39_thumb.jpg", "full": "img/full/img_39.jpg" }, "geometry": { "type": "Point", "coordinates": [ -73.98687, 40.75493 ] } },
{ "type": "Feature", "id": 40, "properties": { "direction": 357, "title": "Block between 41st and 42nd streets", "orientation": 177, "thumbs": "img/thumbs/img_40_thumb.jpg", "full": "img/full/img_40.jpg" }, "geometry": { "type": "Point", "coordinates": [ -73.98671, 40.75456 ] } },
{ "type": "Feature", "id": 41, "properties": { "direction": 297, "title": "42nd Street west from Broadway", "orientation": 117, "thumbs": "img/thumbs/img_41_thumb.jpg", "full": "img/full/img_41.jpg" }, "geometry": { "type": "Point", "coordinates": [ -73.98628, 40.75581 ] } },
{ "type": "Feature", "id": 42, "properties": { "direction": 38, "title": "N. from 43d St, E. side", "orientation": 218, "thumbs": "img/thumbs/img_42_thumb.jpg", "full": "img/full/img_42.jpg" }, "geometry": { "type": "Point", "coordinates": [ -73.98633, 40.7567 ] } },
{ "type": "Feature", "id": 43, "properties": { "direction": 220, "title": "Down 7th Avenue from 44th St", "orientation": 40, "thumbs": "img/thumbs/img_43_thumb.jpg", "full": "img/full/img_43.jpg" }, "geometry": { "type": "Point", "coordinates": [ -73.9855, 40.75783 ] } },
{ "type": "Feature", "id": 44, "properties": { "direction": 203, "title": "Times Building, Hotel Astor", "orientation": 23, "thumbs": "img/thumbs/img_44_thumb.jpg", "full": "img/full/img_44.jpg" }, "geometry": { "type": "Point", "coordinates": [ -73.98516, 40.75878 ] } },
{ "type": "Feature", "id": 45, "properties": { "direction": 95, "title": "Untitled [shop window, east side of Broadway, between 46th and 47th street]", "orientation": 275, "thumbs": "img/thumbs/img_45_thumb.jpg", "full": "img/full/img_45.jpg" }, "geometry": { "type": "Point", "coordinates": [ -73.98516, 40.75896 ] } },
{ "type": "Feature", "id": 46, "properties": { "direction": 272, "title": "Blacksmith shop, w. side Broadway between 46 & 47 streets. [1906]", "orientation": 92, "thumbs": "img/thumbs/img_46_thumb.jpg", "full": "img/full/img_46.jpg" }, "geometry": { "type": "Point", "coordinates": [ -73.98519, 40.75913 ] } },
{ "type": "Feature", "id": 47, "properties": { "direction": 340, "title": "The Circle at 59th Street", "orientation": 160, "thumbs": "img/thumbs/img_47_thumb.jpg", "full": "img/full/img_47.jpg" }, "geometry": { "type": "Point", "coordinates": [ -73.98187, 40.7676 ] } },
{ "type": "Feature", "id": 48, "properties": { "direction": 205, "title": "The Circle from the North", "orientation": 25, "thumbs": "img/thumbs/img_48_thumb.jpg", "full": "img/full/img_48.jpg" }, "geometry": { "type": "Point", "coordinates": [ -73.982, 40.76856 ] } },
{ "type": "Feature", "id": 49, "properties": { "direction": 11, "title": "North from 70th Street", "orientation": 191, "thumbs": "img/thumbs/img_49_thumb.jpg", "full": "img/full/img_49.jpg" }, "geometry": { "type": "Point", "coordinates": [ -73.98214, 40.77733 ] } },
{ "type": "Feature", "id": 50, "properties": { "direction": 200, "title": "South from 76th Street", "orientation": 20, "thumbs": "img/thumbs/img_50_thumb.jpg", "full": "img/full/img_50.jpg" }, "geometry": { "type": "Point", "coordinates": [ -73.98098, 40.78144 ] } },
{ "type": "Feature", "id": 51, "properties": { "direction": 289, "title": "The old Vandenheuvel mansion.  About to come down.", "orientation": 109, "thumbs": "img/thumbs/img_51_thumb.jpg", "full": "img/full/img_51.jpg" }, "geometry": { "type": "Point", "coordinates": [ -73.98022, 40.78386 ] } },
{ "type": "Feature", "id": 52, "properties": { "direction": 251, "title": "S. W. corner 80th Street.  A Couple of old timers and a tax-payer", "orientation": 71, "thumbs": "img/thumbs/img_52_thumb.jpg", "full": "img/full/img_52.jpg" }, "geometry": { "type": "Point", "coordinates": [ -73.97935, 40.78465 ] } },
{ "type": "Feature", "id": 53, "properties": { "direction": 340, "title": "A bit of old Shanty Town. 80th Street, N.W. corner", "orientation": 160, "thumbs": "img/thumbs/img_53_thumb.jpg", "full": "img/full/img_53.jpg" }, "geometry": { "type": "Point", "coordinates": [ -73.97962, 40.78475 ] } },
{ "type": "Feature", "id": 54, "properties": { "direction": 320, "title": "A bit of the Block between 89th & 90th Street, w. side", "orientation": 140, "thumbs": "img/thumbs/img_54_thumb.jpg", "full": "img/full/img_54.jpg" }, "geometry": { "type": "Point", "coordinates": [ -73.97499, 40.79045 ] } },
{ "type": "Feature", "id": 55, "properties": { "direction": 185, "title": "N.E. corner 103d Street.", "orientation": 5, "thumbs": "img/thumbs/img_55_thumb.jpg", "full": "img/full/img_55.jpg" }, "geometry": { "type": "Point", "coordinates": [ -73.96824, 40.79953 ] } },
{ "type": "Feature", "id": 56, "properties": { "direction": 8, "title": "N.W. corner 105th Street.", "orientation": 188, "thumbs": "img/thumbs/img_56_thumb.jpg", "full": "img/full/img_56.jpg" }, "geometry": { "type": "Point", "coordinates": [ -73.96852, 40.80059 ] } },
{ "type": "Feature", "id": 57, "properties": { "direction": 50, "title": "The middle of the block between 109th and 110th Streets B. and Riverside Drive, where the Bloomingdale Road once held its way", "orientation": 230, "thumbs": "img/thumbs/img_57_thumb.jpg", "full": "img/full/img_57.jpg" }, "geometry": { "type": "Point", "coordinates": [ -73.96814, 40.80412 ] } },
{ "type": "Feature", "id": 58, "properties": { "direction": 78, "title": "S. E. corner, 110th Street", "orientation": 258, "thumbs": "img/thumbs/img_58_thumb.jpg", "full": "img/full/img_58.jpg" }, "geometry": { "type": "Point", "coordinates": [ -73.96717, 40.80383 ] } },
{ "type": "Feature", "id": 59, "properties": { "direction": 195, "title": "S. E. corner 112th Street. Formerly known as Little Coney Island", "orientation": 15, "thumbs": "img/thumbs/img_59_thumb.jpg", "full": "img/full/img_59.jpg" }, "geometry": { "type": "Point", "coordinates": [ -73.9656, 40.80551 ] } },
{ "type": "Feature", "id": 60, "properties": { "direction": 40, "title": "Trees that once shaded the west side of the Bloomingdale Road.  N. from 116th Street [at Riverside Drive]", "orientation": 220, "thumbs": "img/thumbs/img_60_thumb.jpg", "full": "img/full/img_60.jpg" }, "geometry": { "type": "Point", "coordinates": [ -73.96555, 40.8088 ] } },
{ "type": "Feature", "id": 61, "properties": { "direction": 220, "title": "The remains of an old stone wall which once bordered the Old Broadway.  Where 123d Street should cross. About 100 feet west of the present Broadway.", "orientation": 40, "thumbs": "img/thumbs/img_61_thumb.jpg", "full": "img/full/img_61.jpg" }, "geometry": { "type": "Point", "coordinates": [ -73.96096, 40.81303 ] } },
{ "type": "Feature", "id": 62, "properties": { "direction": 190, "title": "S. E. corner 124th Street. A year or two ago this was the heart of shanty-town.", "orientation": 10, "thumbs": "img/thumbs/img_62_thumb.jpg", "full": "img/full/img_62.jpg" }, "geometry": { "type": "Point", "coordinates": [ -73.95995, 40.81321 ] } },
{ "type": "Feature", "id": 63, "properties": { "direction": 54, "title": "The old highway where it crossed the Hollow Way.  This is now known as Old Broadway.  It lies e. of the present B. here.", "orientation": 234, "thumbs": "img/thumbs/img_63_thumb.jpg", "full": "img/full/img_63.jpg" }, "geometry": { "type": "Point", "coordinates": [ -73.95789, 40.81502 ] } },
{ "type": "Feature", "id": 64, "properties": { "direction": 238, "title": "Block between 147 and 148 Streets, E. side.  The remains of a Revolutionary redoubt are still to be seen here", "orientation": 58, "thumbs": "img/thumbs/img_64_thumb.jpg", "full": "img/full/img_64.jpg" }, "geometry": { "type": "Point", "coordinates": [ -73.94852, 40.82879 ] } },
{ "type": "Feature", "id": 65, "properties": { "direction": 22, "title": "Subway station 158th Street. Up to March ’06 this was the farthest north one could travel underground.  A Saturday afternoon crowd bound for the ball game.", "orientation": 202, "thumbs": "img/thumbs/img_65_thumb.jpg", "full": "img/full/img_65.jpg" }, "geometry": { "type": "Point", "coordinates": [ -73.94481, 40.83413 ] } },
{ "type": "Feature", "id": 66, "properties": { "direction": 5, "title": "The pictured rocks of Broadway", "orientation": 185, "thumbs": "img/thumbs/img_66_thumb.jpg", "full": "img/full/img_66.jpg" }, "geometry": { "type": "Point", "coordinates": [ -73.94361, 40.8361 ] } },
{ "type": "Feature", "id": 67, "properties": { "direction": 340, "title": "W. from B. at about 171st Street", "orientation": 160, "thumbs": "img/thumbs/img_67_thumb.jpg", "full": "img/full/img_67.jpg" }, "geometry": { "type": "Point", "coordinates": [ -73.93926, 40.84318 ] } },
{ "type": "Feature", "id": 68, "properties": { "direction": 296, "title": "W. from B.  Since this was taken 181st Street has been opened across the foreground and Bennett’s Lane, the trees of which show on the left, completely obliterated. [1897, or before]", "orientation": 116, "thumbs": "img/thumbs/img_68_thumb.jpg", "full": "img/full/img_68.jpg" }, "geometry": { "type": "Point", "coordinates": [ -73.93576, 40.85035 ] } },
{ "type": "Feature", "id": 69, "properties": { "direction": 112, "title": "Bennett’s Lane looking toward B. from the west [before 1897]", "orientation": 292, "thumbs": "img/thumbs/img_69_thumb.jpg", "full": "img/full/img_69.jpg" }, "geometry": { "type": "Point", "coordinates": [ -73.9362, 40.85036 ] } },
{ "type": "Feature", "id": 70, "properties": { "direction": 300, "title": "The brook which flows from the Hessian spring", "orientation": 120, "thumbs": "img/thumbs/img_70_thumb.jpg", "full": "img/full/img_70.jpg" }, "geometry": { "type": "Point", "coordinates": [ -73.93438, 40.85435 ] } },
{ "type": "Feature", "id": 71, "properties": { "direction": 50, "title": "Zerener’s [sic] truck farm. B. and Neagle [sic] ave.", "orientation": 230, "thumbs": "img/thumbs/img_71_thumb.jpg", "full": "img/full/img_71.jpg" }, "geometry": { "type": "Point", "coordinates": [ -73.93096, 40.85959 ] } },
{ "type": "Feature", "id": 72, "properties": { "direction": 0, "title": "Elder Blossom", "orientation": 180, "thumbs": "img/thumbs/img_72_thumb.jpg", "full": "img/full/img_72.jpg" }, "geometry": { "type": "Point", "coordinates": [ -73.92989, 40.8653 ] } },
{ "type": "Feature", "id": 73, "properties": { "direction": 21, "title": "Site of Black Horse Tavern. W. side B. just s. of Dyckman Street.", "orientation": 201, "thumbs": "img/thumbs/img_73_thumb.jpg", "full": "img/full/img_73.jpg" }, "geometry": { "type": "Point", "coordinates": [ -73.92834, 40.86528 ] } },
{ "type": "Feature", "id": 74, "properties": { "direction": 290, "title": "In the S. E. angle of B. and Dyckman Street", "orientation": 110, "thumbs": "img/thumbs/img_74_thumb.jpg", "full": "img/full/img_74.jpg" }, "geometry": { "type": "Point", "coordinates": [ -73.92669, 40.86539 ] } },
{ "type": "Feature", "id": 75, "properties": { "direction": 7, "title": "The Dykeman [sic] House", "orientation": 187, "thumbs": "img/thumbs/img_75_thumb.jpg", "full": "img/full/img_75.jpg" }, "geometry": { "type": "Point", "coordinates": [ -73.92287, 40.86698 ] } },
{ "type": "Feature", "id": 76, "properties": { "direction": 300, "title": "An old apple tree on Emerson street", "orientation": 120, "thumbs": "img/thumbs/img_76_thumb.jpg", "full": "img/full/img_76.jpg" }, "geometry": { "type": "Point", "coordinates": [ -73.92077, 40.86763 ] } },
{ "type": "Feature", "id": 77, "properties": { "direction": 315, "title": "From Inwood Hill", "orientation": 135, "thumbs": "img/thumbs/img_77_thumb.jpg", "full": "img/full/img_77.jpg" }, "geometry": { "type": "Point", "coordinates": [ -73.9226, 40.87041 ] } },
{ "type": "Feature", "id": 78, "properties": { "direction": 240, "title": "Hay making time on Broadway.  About 215th St.", "orientation": 60, "thumbs": "img/thumbs/img_78_thumb.jpg", "full": "img/full/img_78.jpg" }, "geometry": { "type": "Point", "coordinates": [ -73.91594, 40.86996 ] } },
{ "type": "Feature", "id": 79, "properties": { "direction": 280, "title": "Dutchmen’s Breeches from Inwood Hill", "orientation": 100, "thumbs": "img/thumbs/img_79_thumb.jpg", "full": "img/full/img_79.jpg" }, "geometry": { "type": "Point", "coordinates": [ -73.92226, 40.87097 ] } },
{ "type": "Feature", "id": 80, "properties": { "direction": 140, "title": "The simple process of digging ditches in this rock-bottomed region", "orientation": 320, "thumbs": "img/thumbs/img_80_thumb.jpg", "full": "img/full/img_80.jpg" }, "geometry": { "type": "Point", "coordinates": [ -73.918, 40.86887 ] } },
{ "type": "Feature", "id": 81, "properties": { "direction": 5, "title": "The boulder boundary line between the original Jansen and Erdtman [sic] grants. W. of 10th avenue between 209 and 210 streets. [210th and 211th]", "orientation": 185, "thumbs": "img/thumbs/img_81_thumb.jpg", "full": "img/full/img_81.jpg" }, "geometry": { "type": "Point", "coordinates": [ -73.91768, 40.86687 ] } },
{ "type": "Feature", "id": 82, "properties": { "direction": 121, "title": "The old burial ground", "orientation": 301, "thumbs": "img/thumbs/img_82_thumb.jpg", "full": "img/full/img_82.jpg" }, "geometry": { "type": "Point", "coordinates": [ -73.9155, 40.8676 ] } },
{ "type": "Feature", "id": 83, "properties": { "direction": null, "title": "Taraxacum", "orientation": null, "thumbs": "img/thumbs/img_83_thumb.jpg", "full": "img/full/img_83.jpg" }, "geometry": { "type": "Point", "coordinates": [ -73.91667, 40.86904 ] } },
{ "type": "Feature", "id": 84, "properties": { "direction": 160, "title": "Excavating in the cellar of the first Neagle [sic] house. About 212th Street. Two bar-shot found in the fireplace had been used as andirons", "orientation": 340, "thumbs": "img/thumbs/img_84_thumb.jpg", "full": "img/full/img_84.jpg" }, "geometry": { "type": "Point", "coordinates": [ -73.91336, 40.86696 ] } },
{ "type": "Feature", "id": 85, "properties": { "direction": 195, "title": "South along B. to the trolly [sic] power-house", "orientation": 15, "thumbs": "img/thumbs/img_85_thumb.jpg", "full": "img/full/img_85.jpg" }, "geometry": { "type": "Point", "coordinates": [ -73.91315, 40.87215 ] } }
]
}
